City_ID,City,Lat,Lng,Max Temp,Humidity,Cloudiness,Wind Speed,Country,Date
0,fale old settlement,-9.3852,-171.2468,27.46,78,100,4.51,TK,1722885771
1,papatowai,-46.5619,169.4708,5.08,84,32,3.38,NZ,1722885591
2,blackmans bay,-43.0167,147.3167,10.41,74,100,1.79,AU,1722885773
3,qaqortoq,60.7167,-46.0333,9.45,69,100,1.65,GL,1722885774
4,kapa'a,22.0752,-159.319,27.49,71,20,6.17,US,1722885519
5,tarko-sale,64.9225,77.785,11.19,80,100,4.76,RU,1722885777
6,el granada,37.5027,-122.4694,23.6,73,0,2.57,US,1722885778
7,uturoa,-16.7333,-151.4333,25.82,73,100,5.5,PF,1722885779
8,thompson,55.7435,-97.8558,22.09,35,20,3.09,CA,1722885780
9,port elizabeth,-33.918,25.5701,13.16,64,0,3.6,ZA,1722885781
10,ribeira grande,38.5167,-28.7,26.22,83,20,5.14,PT,1722885782
11,burang,30.25,81.1667,11.08,73,100,2.8,CN,1722885783
12,peace river,56.2501,-117.286,15.17,94,100,3.09,CA,1722885784
13,mogadishu,2.0371,45.3438,24.57,80,2,10.06,SO,1722885190
14,chinchilla,-26.75,150.6333,13.34,99,100,4.22,AU,1722885786
15,rongelap,11.1635,166.8941,28.3,79,100,7.25,MH,1722885671
16,albany,42.6001,-73.9662,30.5,62,96,1.67,US,1722885789
17,puerto natales,-51.7236,-72.4875,1.25,80,40,2.57,CL,1722885790
18,yellowknife,62.456,-114.3525,20.79,52,75,3.6,CA,1722885791
19,chonchi,-42.6128,-73.8092,8.56,97,100,1.75,CL,1722885792
20,markovo,57.3206,107.0881,12.99,69,8,1.03,RU,1722885793
21,aasiaat,68.7098,-52.8699,3.05,88,64,1.21,GL,1722885645
22,adamstown,-25.066,-130.1015,19.49,65,21,5.49,PN,1722885795
23,edinburgh of the seven seas,-37.0676,-12.3116,13.74,91,92,11.02,SH,1722885796
24,mount gambier,-37.8333,140.7667,6.0,100,100,2.85,AU,1722885797
25,puerto ayora,-0.7393,-90.3518,24.98,78,59,5.32,EC,1722885798
26,whitehorse,60.7161,-135.0538,21.68,39,0,6.17,CA,1722885800
27,fort mcmurray,56.7268,-111.381,21.77,52,0,5.14,CA,1722885801
28,quang ngai,15.1167,108.8,24.1,91,100,1.91,VN,1722885802
29,colares,38.7992,-9.4469,24.55,76,20,12.35,PT,1722885803
30,wabag,-5.4781,143.7021,10.92,98,72,1.38,PG,1722885804
31,pisco,-13.7,-76.2167,19.03,72,0,4.63,PE,1722885616
32,minas de marcona,-15.2119,-75.1103,15.63,60,0,8.85,PE,1722885806
33,nora,59.5193,15.0398,20.69,86,100,0.15,SE,1722885807
34,waitangi,-43.9535,-176.5597,8.79,94,86,0.45,NZ,1722885799
35,suez,29.9737,32.5263,28.63,35,5,4.44,EG,1722885809
36,port-aux-francais,-49.35,70.2167,1.01,72,12,5.54,TF,1722885599
37,hammerfest,70.6634,23.6821,18.06,61,7,1.73,NO,1722885620
38,berdigestyakh,62.0989,126.6992,12.78,92,100,2.21,RU,1722885813
39,port lincoln,-34.7333,135.8667,9.22,91,99,4.21,AU,1722885814
40,coquimbo,-29.9533,-71.3436,15.85,47,0,4.12,CL,1722885796
41,knyaze-volkonskoye,48.4642,135.4567,22.19,94,99,4.21,RU,1722885816
42,acarau,-2.8856,-40.12,28.39,62,100,9.66,BR,1722885817
43,port isabel,26.0734,-97.2086,34.05,73,0,5.14,US,1722885818
44,saipan,15.1355,145.701,27.39,89,0,2.06,MP,1722885819
45,qui nhon,13.7667,109.2333,25.79,87,100,1.37,VN,1722885820
46,flying fish cove,-10.4217,105.6791,24.82,83,100,5.14,CX,1722885821
47,punta arenas,-53.15,-70.9167,1.06,80,20,3.6,CL,1722885596
48,margaret river,-33.95,115.0667,16.28,84,99,7.62,AU,1722885824
49,katsuura,35.1333,140.3,24.54,92,0,2.85,JP,1722885825
50,enewetak,11.3474,162.3373,28.64,73,83,2.19,MH,1722885826
51,bilibino,68.0546,166.4372,2.21,68,84,1.83,RU,1722885827
52,bijie,27.3125,105.2942,18.79,97,100,1.93,CN,1722885828
53,arkhangel'sk,64.5401,40.5433,13.06,88,40,2.0,RU,1722885829
54,berezovo,63.9381,65.0419,11.62,72,100,5.08,RU,1722885830
55,wailua homesteads,22.0669,-159.378,26.74,73,20,6.17,US,1722885802
56,callao,-12.0667,-77.15,22.46,81,69,6.3,PE,1722885832
57,hawaiian paradise park,19.5933,-154.9731,26.73,78,20,2.06,US,1722885833
58,atafu village,-8.5421,-172.5159,27.92,75,26,2.29,TK,1722885835
59,iqaluit,63.7506,-68.5145,7.85,81,100,3.6,CA,1722885836
60,luderitz,-26.6481,15.1594,13.32,66,0,7.35,NA,1722885837
61,port alfred,-33.5906,26.891,13.87,60,0,4.81,ZA,1722885838
62,shimoda,34.6667,138.95,25.61,88,8,1.55,JP,1722885839
63,harper,4.375,-7.7169,24.32,84,100,4.52,LR,1722885840
64,avarua,-21.2078,-159.775,25.03,78,2,4.12,CK,1722885841
65,isafjordur,66.0755,-23.124,11.02,82,75,7.2,IS,1722885842
66,naze,28.3667,129.4833,28.51,86,0,3.25,JP,1722885843
67,ardestan,33.3761,52.3694,35.15,13,98,1.12,IR,1722885844
68,tabora,-5.0167,32.8,20.84,20,0,1.97,TZ,1722885847
69,undurkhaan,47.3194,110.6556,14.14,87,16,1.47,MN,1722885848
70,bredasdorp,-34.5322,20.0403,8.78,83,0,3.44,ZA,1722885759
71,preobrazheniye,42.9019,133.9064,17.27,91,96,0.59,RU,1722885850
72,bethel,41.3712,-73.414,32.42,58,0,3.6,US,1722885574
73,nemuro,43.3236,145.575,16.56,100,100,1.0,JP,1722885852
74,geraldton,-28.7667,114.6,9.23,87,0,5.14,AU,1722885853
75,takoradi,4.8845,-1.7554,23.29,88,100,4.3,GH,1722885342
76,kingston,17.997,-76.7936,33.53,62,20,10.8,JM,1722885584
77,grytviken,-54.2811,-36.5092,-8.31,76,100,4.8,GS,1722885856
78,keflavik,64.0049,-22.5624,12.95,94,75,4.12,IS,1722885858
79,hermanus,-34.4187,19.2345,11.38,79,12,5.63,ZA,1722885859
80,regina,50.4501,-104.6178,21.99,52,75,5.66,CA,1722885532
81,lihue,21.9789,-159.3672,27.08,71,20,6.17,US,1722885601
82,kollo,13.3043,2.339,31.24,57,80,3.72,NE,1722885732
83,garissa,-0.4536,39.6401,24.92,53,73,10.24,KE,1722885863
84,chunskiy,56.0815,99.6342,13.78,84,0,1.29,RU,1722885865
85,ayr,55.4627,-4.6339,16.39,100,100,1.03,GB,1722885835
86,bamboo flat,11.7,92.7167,26.05,89,75,2.06,IN,1722885867
87,schmolln,50.9,12.3667,19.0,75,14,0.51,DE,1722885868
88,tiksi,71.6872,128.8694,11.34,76,100,2.56,RU,1722885703
89,klyuchi,52.2667,79.1667,18.06,69,40,2.96,RU,1722885870
90,pico truncado,-46.7949,-67.9573,2.74,96,100,7.52,AR,1722885871
91,ballina,-28.8667,153.5667,16.55,79,100,4.05,AU,1722885872
92,freetown,8.484,-13.2299,25.25,86,98,4.71,SL,1722885873
93,westerland,54.9079,8.3033,18.85,68,12,1.54,DE,1722885874
94,badger,64.8,-147.5333,24.65,51,20,4.12,US,1722885720
95,howrah,22.5892,88.3103,28.0,94,40,1.54,IN,1722885877
96,sitka,57.0531,-135.33,20.94,60,20,0.0,US,1722885878
97,fuxin,42.0156,121.6589,22.26,93,0,1.43,CN,1722885879
98,stanley,54.868,-1.6985,21.82,80,75,2.57,GB,1722885880
99,i-n-salah,27.1935,2.4607,40.06,10,4,5.34,DZ,1722885881
100,mount pleasant,32.7941,-79.8626,25.56,96,75,3.13,US,1722885825
101,skelleftea,64.7507,20.9528,17.2,97,6,1.03,SE,1722885883
102,longyearbyen,78.2186,15.6401,9.91,81,20,6.17,SJ,1722885885
103,cabo san lucas,22.8909,-109.9124,34.61,37,20,5.14,MX,1722885886
104,giyani,-23.3025,30.7187,17.9,73,0,4.61,ZA,1722885887
105,fortuna,40.5982,-124.1573,15.55,95,100,2.57,US,1722885889
106,tolanaro,-25.0319,46.9987,18.04,88,0,0.0,MG,1722885890
107,tazovsky,67.4667,78.7,7.8,70,99,5.96,RU,1722885891
108,cole harbour,44.6724,-63.4751,27.66,74,43,5.66,CA,1722885892
109,nadym,65.5333,72.5167,8.49,68,73,5.57,RU,1722885894
110,ryotsu-minato,38.0833,138.4333,23.32,91,79,2.87,JP,1722885895
111,palmer,42.1584,-72.3287,32.03,53,40,4.12,US,1722885896
112,malvan,16.0667,73.4667,26.34,87,58,4.22,IN,1722885898
113,swakopmund,-22.6833,14.5333,13.32,82,0,1.8,NA,1722885899
114,mucumpiz,8.4167,-71.1333,17.83,89,100,1.22,VE,1722885900
115,lebu,-37.6167,-73.65,10.68,65,73,2.98,CL,1722885901
116,castelo do piaui,-5.3222,-41.5525,35.53,22,92,3.24,BR,1722885902
117,guozhen,34.3659,107.359,23.67,86,3,0.85,CN,1722885903
118,morehead city,34.7229,-76.726,29.0,82,40,3.13,US,1722885904
119,borogontsy,62.6683,131.1683,11.95,92,100,3.88,RU,1722885906
120,palikir - national government center,6.9248,158.1611,24.41,88,100,1.54,FM,1722885907
121,olonkinbyen,70.9221,-8.7187,6.37,96,99,2.45,SJ,1722885739
122,kumburgaz,41.0211,28.4772,24.95,68,0,6.63,TR,1722885909
123,vernon,50.2581,-119.2691,32.94,31,0,1.03,CA,1722885910
124,padang,-0.9492,100.3543,26.03,89,100,2.6,ID,1722885911
125,kampong thom,12.7111,104.8887,26.14,84,9,1.0,KH,1722885912
126,mineros,-17.1167,-63.2333,32.41,39,49,3.93,BO,1722885913
127,kodiak,57.79,-152.4072,12.73,100,100,6.69,US,1722885842
128,hangu,39.2489,117.7892,27.02,78,0,1.22,CN,1722885915
129,ilulissat,69.2167,-51.1,9.01,76,20,2.06,GL,1722885916
130,taltal,-25.4,-70.4833,16.24,68,24,3.07,CL,1722885918
131,mejit,10.2753,170.8646,28.34,79,100,6.71,MH,1722885919
132,west island,-12.1568,96.8225,25.99,73,20,4.12,CC,1722885920
133,utrik,11.2278,169.8474,28.03,81,94,6.73,MH,1722885921
134,kassala,15.451,36.4,25.46,79,100,8.0,SD,1722885922
135,haiku-pauwela,20.9219,-156.3051,28.45,75,20,7.2,US,1722885923
136,laguna,38.421,-121.4238,34.62,36,0,3.09,US,1722885924
137,invercargill,-46.4,168.35,3.9,92,95,1.79,NZ,1722885637
138,mikhaylovskoye,51.8239,79.7172,20.8,52,100,1.15,RU,1722885926
139,labytnangi,66.6572,66.4183,7.48,64,35,5.6,RU,1722885927
140,bull savanna,17.8868,-77.5902,30.05,62,89,9.12,JM,1722885928
141,don luan,11.5333,106.9167,25.52,96,100,1.18,VN,1722885930
142,susuman,62.7833,148.1667,11.06,66,94,2.84,RU,1722885919
143,vorkuta,67.5,64.0,6.84,72,6,2.09,RU,1722885932
144,kailua-kona,19.6406,-155.9956,28.11,77,100,3.09,US,1722885933
145,hamilton,39.1834,-84.5333,34.49,52,0,2.57,US,1722885778
146,benguela,-12.5763,13.4055,20.74,87,100,1.15,AO,1722885935
147,ribeira brava,32.65,-17.0667,26.11,74,66,3.56,PT,1722885936
148,namie,37.4833,141.0,27.06,94,6,0.77,JP,1722885937
149,enriquillo,17.9,-71.2333,32.82,65,6,5.34,DO,1722885938
150,iguape,-24.7081,-47.5553,21.22,81,31,3.19,BR,1722885939
151,tralee,52.2704,-9.7026,14.77,76,0,3.9,IE,1722885943
152,fergus falls,46.283,-96.0776,17.04,97,20,7.2,US,1722885714
153,qujing,25.4833,103.7833,15.98,96,41,1.16,CN,1722885945
154,praia da vitoria,38.7333,-27.0667,28.14,69,20,3.2,PT,1722885946
155,saldanha,-33.0117,17.9442,12.03,81,1,4.1,ZA,1722885947
156,fortaleza,-3.7227,-38.5247,29.07,61,20,8.23,BR,1722885736
157,qutqashen,40.9814,47.8458,22.11,50,0,2.77,AZ,1722885949
158,yanchep,-31.55,115.6833,12.19,90,2,3.84,AU,1722885951
159,taro,-8.3862,115.28,22.0,96,80,0.37,ID,1722885952
160,codrington,-38.2667,141.9667,5.77,96,100,5.1,AU,1722885953
161,noumea,-22.2763,166.4572,19.44,99,75,3.38,NC,1722885955
162,queenstown,-31.8976,26.8753,8.99,25,0,2.73,ZA,1722885956
163,nieuw amsterdam,5.8833,-55.0833,34.09,62,40,3.09,SR,1722885957
164,ceeldheer,3.8488,47.1806,24.38,81,2,9.15,SO,1722885895
165,mabaruma,8.2,-59.7833,25.48,95,100,1.72,GY,1722885959
166,kerikeri,-35.2268,173.9474,6.06,93,1,1.63,NZ,1722885693
167,port saint john's,-31.6229,29.5448,13.92,71,0,2.86,ZA,1722885962
168,egilsstadir,65.2653,-14.3948,9.95,93,75,8.23,IS,1722885963
169,port mathurin,-19.6833,63.4167,22.44,77,14,8.97,MU,1722885964
170,basco,20.4487,121.9702,29.12,71,100,5.87,PH,1722885599
171,awjilah,29.1081,21.2869,34.29,19,0,3.73,LY,1722885966
172,vorgashor,67.5833,63.95,6.22,72,6,3.03,RU,1722885967
173,dryden,49.7833,-92.7503,21.16,40,20,2.06,CA,1722885497
174,new norfolk,-42.7826,147.0587,11.07,83,100,2.01,AU,1722885577
175,brokopondo,4.75,-55.1667,31.44,52,10,1.73,SR,1722885970
176,ouani,-12.1322,44.4258,24.33,70,25,2.58,KM,1722885971
177,cruz del eje,-30.7264,-64.8039,24.5,25,0,4.83,AR,1722885972
178,ushuaia,-54.8,-68.3,-0.19,64,20,0.0,AR,1722885801
179,arteche,12.2645,125.4048,25.1,94,100,2.45,PH,1722885975
180,gadzhiyevo,69.2551,33.3362,10.58,79,2,2.61,RU,1722885976
181,nuuk,64.1835,-51.7216,11.34,66,75,2.06,GL,1722885450
182,choconta,5.1447,-73.6858,17.85,62,100,5.04,CO,1722885978
183,tindouf,27.6711,-8.1474,45.25,6,0,2.06,DZ,1722885979
184,richards bay,-28.783,32.0377,16.11,70,0,0.74,ZA,1722885392
185,talnakh,69.4865,88.3972,8.38,69,0,1.67,RU,1722885711
186,prainha,-1.8,-53.48,35.06,32,3,2.25,BR,1722885707
187,constantia,44.1833,28.65,22.61,61,100,5.4,RO,1722885845
188,midoun,33.8081,10.9923,27.92,71,0,3.63,TN,1722885984
189,alice springs,-23.7,133.8833,3.75,93,0,1.03,AU,1722885395
190,bucerias,20.75,-105.3333,33.88,58,40,4.12,MX,1722885783
191,kiunga,-6.1219,141.2906,22.66,99,97,1.42,PG,1722885431
192,tinajo,29.0788,-13.7081,23.49,69,20,7.72,ES,1722885989
193,timbuktu,16.7735,-3.0074,35.72,36,24,3.48,ML,1722885397
194,boende,-0.2167,20.8667,25.23,68,79,1.07,CD,1722885991
195,luba,3.4568,8.5547,24.94,91,100,4.08,GQ,1722885992
196,varadero,23.1536,-81.2514,33.42,63,100,1.66,CU,1722885834
197,crane,31.3974,-102.3501,33.08,30,100,3.82,US,1722885994
198,san martin,-33.081,-68.4681,23.3,10,0,2.88,AR,1722885950
199,kangaba,11.9333,-8.4167,23.73,93,100,1.59,ML,1722885996
200,al kharijah,25.4514,30.5464,36.04,15,83,4.44,EG,1722885997
201,caras,-9.0467,-77.8114,22.73,40,75,3.92,PE,1722885998
202,ust'-kulom,61.6864,53.6902,12.22,92,87,3.2,RU,1722885999
203,kolonia town,6.964,158.206,25.0,88,100,1.54,FM,1722886001
204,jamestown,42.097,-79.2353,28.9,65,100,4.63,US,1722886002
205,antsiranana,-12.2787,49.2917,22.49,81,9,6.34,MG,1722885964
206,rudsar,37.1376,50.288,26.99,86,0,0.17,IR,1722886004
207,sinabang,2.4803,96.3801,25.54,86,99,1.54,ID,1722886005
208,san patricio,28.017,-97.5169,34.53,40,12,2.9,US,1722885409
209,parun,35.4207,70.9221,13.89,65,6,3.18,AF,1722886007
210,urangan,-25.3,152.9,18.76,73,4,5.48,AU,1722886008
211,laojunmiao,39.8333,97.7333,22.13,36,7,2.72,CN,1722885593
212,college,64.8569,-147.8028,25.18,50,20,4.12,US,1722886010
213,nabire,-3.3667,135.4833,23.44,93,99,1.47,ID,1722886011
214,salalah,17.0151,54.0924,25.05,94,100,0.0,OM,1722886012
215,katsuren-haebaru,26.3369,127.8719,27.01,96,75,4.63,JP,1722885716
216,vadso,70.0744,29.7487,12.49,93,0,5.14,NO,1722886015
217,martuk,50.7475,56.5056,24.82,40,91,2.95,KZ,1722886016
218,slave lake,55.2834,-114.769,18.99,72,100,2.06,CA,1722886017
219,happy valley-goose bay,53.3168,-60.3315,24.17,41,75,4.63,CA,1722885743
220,el bauga,18.262,33.9081,34.75,38,100,4.78,SD,1722886019
221,koryazhma,61.3143,47.1691,14.9,99,74,2.54,RU,1722886021
222,adrar,20.5022,-10.0711,39.25,16,0,3.78,MR,1722886022
223,arhribs,36.7936,4.3116,25.63,40,0,2.29,DZ,1722886023
224,cartagena del chaira,1.3349,-74.8429,25.74,74,100,1.79,CO,1722886024
225,gillette,44.2911,-105.5022,27.84,39,0,3.6,US,1722885298
226,taoudenni,22.6783,-3.9836,42.48,11,13,3.81,ML,1722886027
227,scottburgh,-30.2867,30.7532,15.08,68,41,0.92,ZA,1722886028
228,st. john's,47.5649,-52.7093,23.49,90,100,11.32,CA,1722886029
229,sooke,48.3746,-123.7276,19.76,78,42,4.03,CA,1722886030
230,remire-montjoly,4.9167,-52.2667,32.02,66,20,6.17,GF,1722886031
231,lamu,-2.2717,40.902,23.86,78,17,6.29,KE,1722886032
232,horta,38.5333,-28.6333,25.8,91,20,5.14,PT,1722886033
233,craig,40.5153,-107.5464,29.66,19,16,2.68,US,1722886034
234,ulysses,37.5814,-101.3552,36.53,26,0,8.23,US,1722886035
235,udachny,66.4167,112.4,10.31,88,100,7.89,RU,1722886039
236,rocha,-34.4833,-54.3333,14.87,89,100,5.88,UY,1722886040
237,huesca,42.1362,-0.4087,32.38,43,0,3.6,ES,1722886041
238,sukhinichi,54.0999,35.3425,18.42,69,100,2.24,RU,1722886042
239,mount pearl,47.5166,-52.7813,23.03,89,100,11.32,CA,1722886043
240,itacarambi,-15.1022,-44.0919,28.57,36,72,2.04,BR,1722886044
241,kikwit,-5.041,18.8162,31.87,29,100,1.12,CD,1722886045
242,suoyarvi,62.0833,32.35,13.77,80,99,2.13,RU,1722885459
243,zaysan,47.4667,84.8667,20.02,44,1,2.67,KZ,1722886047
244,tura,25.5198,90.2201,24.31,99,100,2.54,IN,1722885866
245,qionghai,19.2425,110.4642,24.99,91,83,0.68,CN,1722886050
246,mstsislaw,54.0192,31.7257,16.57,78,100,1.63,BY,1722886051
247,selfoss,63.9331,-20.9971,11.69,96,100,0.83,IS,1722886052
248,golere,16.2557,-14.1017,33.44,47,100,4.15,SN,1722885918
249,sur,22.5667,59.5289,30.34,60,100,2.46,OM,1722886054
250,pauri,30.15,78.7833,20.55,97,100,2.05,IN,1722886055
251,veraval,20.9,70.3667,27.46,87,99,8.47,IN,1722886056
252,ruidoso,33.3317,-105.673,29.03,31,20,1.54,US,1722886057
253,east london,-33.0153,27.9116,15.23,51,0,2.51,ZA,1722886058
254,revda,56.801,59.9303,15.22,97,100,3.24,RU,1722885893
255,lubao,14.9167,120.55,26.04,89,100,2.13,PH,1722886060
256,magistral'nyy,56.1725,107.4458,13.41,78,58,1.39,RU,1722886062
257,afaahiti,-17.75,-149.2833,25.93,75,86,5.33,PF,1722886063
258,ust-nera,64.5667,143.2,11.54,66,99,2.08,RU,1722885941
259,tchintabaraden,15.8969,5.7985,33.67,42,58,4.24,NE,1722886065
260,hithadhoo,-0.6,73.0833,28.53,73,100,1.46,MV,1722886067
261,hadibu,12.65,54.0333,25.64,80,37,8.59,YE,1722886068
262,robore,-18.3333,-59.75,36.05,32,0,7.72,BO,1722886069
263,pushkinskiye gory,57.0209,28.9103,16.39,88,49,1.34,RU,1722886070
264,anar darah,32.7587,61.654,33.67,14,0,4.69,AF,1722886071
265,betio village,1.358,172.9211,28.95,62,100,5.82,KI,1722886072
266,puerto baquerizo moreno,-0.9,-89.6,20.55,100,100,2.57,EC,1722886074
267,wusong,30.95,117.7833,26.43,69,11,1.97,CN,1722886075
268,poyang,28.9924,116.6675,26.44,80,78,1.93,CN,1722886076
269,watsa,3.0372,29.5355,19.1,96,100,0.44,CD,1722886077
270,conception bay south,47.4999,-52.9981,23.36,90,100,6.58,CA,1722886078
271,bilmak,47.3624,36.6511,20.72,58,28,3.63,UA,1722886079
272,sterling,39.0062,-77.4286,35.62,46,0,1.34,US,1722886055
273,polyarnyy,69.1989,33.4478,11.07,75,3,2.6,RU,1722885584
274,salinopolis,-0.6136,-47.3561,28.5,70,55,6.7,BR,1722886013
275,nikolayevsk-on-amure,53.1406,140.73,14.94,83,100,1.65,RU,1722886083
276,osakarovka,50.565,72.5692,19.98,55,97,1.58,KZ,1722886084
277,meiktila,20.8667,95.8667,23.54,95,100,4.92,MM,1722886086
278,tabou,4.423,-7.3528,24.08,85,100,4.3,CI,1722886087
279,baganga,7.5739,126.56,24.54,84,76,2.11,PH,1722886088
280,kayangel,8.0823,134.7173,28.54,75,100,4.42,PW,1722885853
281,mozarlandia,-14.7447,-50.5706,33.85,17,0,3.79,BR,1722886090
282,georgetown,5.4112,100.3354,28.96,79,20,0.0,MY,1722886092
283,yangambi,0.8102,24.4336,22.78,85,76,1.01,CD,1722886093
284,sierra grande,-41.606,-65.3557,12.73,40,100,2.23,AR,1722886095
285,la passe,45.5549,-0.8967,23.9,74,0,5.06,FR,1722886096
286,island harbour,50.724,-1.2758,20.66,79,53,1.34,GB,1722886098
287,shingu,33.7333,135.9833,25.24,94,61,1.37,JP,1722885598
288,mili,6.0815,171.735,28.02,77,20,4.42,MH,1722886088
289,tommot,58.9564,126.2925,13.96,97,100,2.49,RU,1722886101
290,portland,45.5234,-122.6762,27.19,52,0,1.79,US,1722886102
291,tazacorte,28.629,-17.9293,23.54,85,20,4.63,ES,1722885935
292,melo,-32.3667,-54.1833,16.93,95,100,5.55,UY,1722886104
293,castillos,-34.1667,-53.8333,14.25,92,100,5.02,UY,1722886105
294,champerico,14.3,-91.9167,34.3,69,82,2.76,GT,1722886106
295,san andres,12.5847,-81.7006,32.01,74,20,6.17,CO,1722886107
296,az zuwaytinah,30.9522,20.1202,29.7,57,0,6.23,LY,1722886108
297,ziro,27.6333,93.8333,17.15,98,100,0.64,IN,1722886109
298,usinsk,65.9939,57.5281,10.25,72,99,5.75,RU,1722886111
299,el haouaria,37.05,11.0144,27.01,86,0,5.49,TN,1722886112
300,tual,-5.6667,132.75,25.25,85,97,9.29,ID,1722885710
301,koulikoro,14.0,-7.75,25.61,80,36,3.47,ML,1722885656
302,wynyard,-41.0,145.7167,8.46,89,55,3.7,AU,1722886115
303,ascoli piceno,42.8548,13.5749,27.36,58,45,2.39,IT,1722886116
304,wharton,29.3116,-96.1027,36.06,52,40,0.0,US,1722885828
305,mar del plata,-38.0023,-57.5575,13.01,86,0,7.2,AR,1722886077
306,shahr sultan,29.5765,71.0212,35.82,47,68,3.14,PK,1722886119
307,ujae,8.9322,165.7642,28.76,73,92,3.16,MH,1722886120
308,kone,-21.0595,164.8658,14.46,78,8,1.64,NC,1722886121
309,carthage,36.8611,10.3316,27.74,65,20,5.14,TN,1722886017
310,opuwo,-18.0607,13.84,21.41,18,0,0.25,NA,1722886124
311,ma'rib,15.4591,45.3253,30.08,34,49,9.27,YE,1722886125
312,kaspiyskiy,45.3929,47.3707,27.19,63,1,1.34,RU,1722886126
313,balashov,51.5502,43.1667,21.17,60,100,2.72,RU,1722886127
314,barra velha,-26.6322,-48.6847,23.86,83,28,2.28,BR,1722886129
315,umarkot,25.3616,69.7362,29.11,75,100,3.98,PK,1722886130
316,ndele,8.4109,20.6473,21.88,90,81,0.47,CF,1722886131
317,guerrero negro,27.9769,-114.0611,27.98,49,100,4.09,MX,1722886132
318,fada,7.25,4.0667,23.34,85,100,2.39,NG,1722886133
319,charters towers,-20.1,146.2667,12.81,92,27,1.86,AU,1722886134
320,cestos city,5.46,-9.5828,25.06,82,39,4.79,LR,1722886135
321,pierre,44.3683,-100.351,21.51,86,100,6.17,US,1722886136
322,tofol,5.3248,163.0078,28.07,77,100,4.13,FM,1722885614
323,suva,-18.1416,178.4415,15.71,100,20,1.54,FJ,1722885688
324,yacuiba,-22.038,-63.6797,31.43,42,0,3.6,BO,1722886025
325,nova sintra,14.8667,-24.7167,27.56,71,42,2.07,CV,1722885928
326,las pedroneras,39.45,-2.6739,32.87,16,0,1.83,ES,1722886143
327,sao vicente,-23.9631,-46.3919,33.48,76,37,0.79,BR,1722885948
328,leer,53.2316,7.461,21.64,81,55,3.44,DE,1722886145
329,cayiralan,39.3028,35.6439,21.23,38,0,2.48,TR,1722886146
330,serenje,-13.2325,30.2352,15.62,33,0,1.84,ZM,1722886147
331,hasaki,35.7333,140.8333,25.22,90,0,2.39,JP,1722886148
332,alofi,-19.0595,-169.9187,21.94,100,75,2.06,NU,1722885583
333,itamaraca,-7.7478,-34.8256,28.03,64,41,4.95,BR,1722886150
334,putina,-15.4667,-69.4333,11.49,44,18,4.39,PE,1722886152
335,falam,22.9167,93.6833,20.29,99,100,0.64,MM,1722886153
336,along,28.1667,94.7667,21.34,99,86,0.41,IN,1722886154
337,"laikit, laikit ii (dimembe)",1.4792,124.9735,21.47,94,20,1.03,ID,1722886155
338,nadi,-17.8,177.4167,17.0,82,20,1.03,FJ,1722886156
339,anadyr,64.75,177.4833,2.28,93,75,7.0,RU,1722886157
340,konarka,19.9,86.1167,27.22,83,100,3.48,IN,1722886159
341,la jolla,32.8473,-117.2742,35.17,66,40,3.6,US,1722886160
342,dabakala,8.3667,-4.4333,25.57,71,70,2.19,CI,1722886161
343,wajir,1.7471,40.0573,29.6,29,17,5.28,KE,1722886162
344,godda,24.8333,87.2167,29.73,72,100,1.93,IN,1722886163
345,arraial do cabo,-22.9661,-42.0278,26.98,69,0,8.75,BR,1722886164
346,yelizovo,53.1873,158.3805,12.08,100,100,1.0,RU,1722886165
347,nianzishan,47.5167,122.8833,18.54,69,0,2.17,CN,1722886166
348,solotvyno,47.946,23.8703,17.33,97,100,1.61,UA,1722886167
349,vytegra,61.0064,36.4481,15.07,89,100,2.42,RU,1722886168
350,kruisfontein,-34.0033,24.7314,8.82,60,0,2.71,ZA,1722886170
351,viedma,-40.8135,-62.9967,18.84,21,100,5.62,AR,1722886171
352,amontada,-3.3617,-39.8317,34.42,30,100,3.85,BR,1722886172
353,nelson,-41.2833,173.2833,3.49,89,0,1.79,NZ,1722886173
354,berbera,10.4396,45.0143,30.54,66,100,3.21,SO,1722886174
355,yambio,4.5721,28.3955,21.13,88,71,1.34,SS,1722886175
356,manggar,-2.8833,108.2667,27.18,73,93,5.83,ID,1722886176
357,dauphin,51.1494,-100.0502,22.08,43,40,1.54,CA,1722886177
358,kupang,-10.1667,123.5833,25.32,83,0,4.63,ID,1722886178
359,berezovyy,51.6667,135.7,17.53,96,100,1.94,RU,1722886096
360,mwene-ditu,-7.0,23.45,25.66,21,3,1.41,CD,1722886181
361,goz beida,13.95,20.55,23.79,87,83,3.82,TD,1722886182
362,lincoln city,44.9582,-124.0179,21.27,77,0,4.47,US,1722886183
363,bereket,39.2446,55.5154,35.94,16,0,3.58,TM,1722886184
364,monte santo,-10.4378,-39.3328,23.89,61,100,4.16,BR,1722886185
365,shortandy,51.7006,70.9994,17.5,74,28,2.0,KZ,1722886186
366,bishkek,42.87,74.59,27.11,29,99,2.38,KG,1722886130
367,kismayo,-0.3582,42.5454,24.54,79,38,7.46,SO,1722886188
368,muli,2.9167,73.5667,28.3,73,100,2.76,MV,1722886189
369,ketchikan,55.3422,-131.6461,22.26,56,0,3.6,US,1722886190
370,turpan,42.9333,89.1667,37.0,18,5,3.1,CN,1722886193
371,fort stockton,30.894,-102.8793,33.42,39,0,5.66,US,1722886194
372,yuzhno-kurilsk,44.0306,145.8556,16.13,99,100,2.58,RU,1722886195
373,tambura,5.6,27.4667,21.51,91,100,1.6,SS,1722886196
374,princeton,25.5384,-80.4089,34.45,65,75,6.17,US,1722886198
375,beyneu,45.3167,55.2,33.85,24,0,4.7,KZ,1722886199
376,strelka,58.0728,93.0344,16.25,97,39,0.71,RU,1722886200
377,shumikha,55.2261,63.2961,16.48,95,100,2.92,RU,1722886201
378,mil'kovo,55.6078,37.7956,20.19,65,3,1.67,RU,1722886202
379,nouadhibou,20.931,-17.0347,23.99,78,27,8.75,MR,1722885916
380,bac lieu,9.285,105.7244,25.78,89,55,3.55,VN,1722886204
381,timimoun,29.2639,0.231,42.21,10,0,1.54,DZ,1722886205
382,colonia,50.9333,6.95,24.42,70,0,1.54,DE,1722885935
383,norilsk,69.3535,88.2027,7.81,73,8,1.42,RU,1722886208
384,usogorsk,63.4106,48.6872,13.71,94,99,1.81,RU,1722886209
385,jackson,42.4165,-122.8345,32.79,36,0,1.54,US,1722886210
386,kirakira,-10.4544,161.9205,25.34,88,100,4.59,SB,1722885914
387,tyn nad vltavou,49.2234,14.4206,17.23,87,8,0.37,CZ,1722886212
388,aripuana,-9.1667,-60.6333,36.6,19,3,1.85,BR,1722886213
389,okhotsk,59.3833,143.3,11.49,95,100,5.79,RU,1722886175
390,orda,57.1951,56.9091,14.34,96,60,3.14,RU,1722886215
391,carbonear,47.7332,-53.2148,23.75,94,100,5.56,CA,1722886217
392,ishigaki,24.3448,124.1572,25.07,100,100,4.12,JP,1722886219
393,general levalle,-34.0147,-63.9241,20.71,32,0,5.91,AR,1722886220
394,mirpur sakro,24.5474,67.6277,28.42,82,100,4.89,PK,1722886221
395,keningau,5.3378,116.1602,22.36,97,96,0.51,MY,1722886222
396,manokwari,-0.8667,134.0833,25.94,80,59,2.94,ID,1722886223
397,vetluga,57.8557,45.781,14.87,97,100,1.57,RU,1722886225
398,kiruna,67.8557,20.2251,15.51,72,75,1.54,SE,1722886226
399,ibresi,55.2961,47.0394,18.84,62,100,1.83,RU,1722886227
400,santa ines,-3.6667,-45.38,34.59,29,67,2.21,BR,1722886228
401,porto novo,6.4965,2.6036,25.9,82,99,4.69,BJ,1722886229
402,popilnia,49.9665,29.4435,19.33,55,100,1.8,UA,1722886230
403,savanna-la-mar,18.219,-78.1332,31.07,73,98,1.62,JM,1722886231
404,cidreira,-30.1811,-50.2056,16.35,97,85,3.8,BR,1722886232
405,vetluzhskiy,58.3902,45.4654,14.66,97,100,1.67,RU,1722886233
406,sarupathar,26.1984,93.8094,25.05,95,100,0.73,IN,1722886234
407,salahonda,2.1019,-78.7217,25.76,83,97,5.8,CO,1722886236
408,kavieng,-2.5744,150.7967,27.53,78,100,5.12,PG,1722886237
409,newport,51.5877,-2.9984,21.36,84,84,6.25,GB,1722886238
410,carnarvon,-24.8667,113.6333,16.78,60,0,2.51,AU,1722886239
411,guelmim,28.987,-10.0574,24.01,52,0,4.14,MA,1722886240
412,dese,11.1333,39.6333,13.33,90,100,1.15,ET,1722886241
413,la ronge,55.1001,-105.2842,22.12,37,100,3.6,CA,1722886242
414,altay,47.8667,88.1167,15.48,42,0,2.68,CN,1722886243
415,hohhot,40.8106,111.6522,16.16,88,0,2.0,CN,1722886244
416,quimili,-27.6333,-62.4167,27.33,35,0,2.58,AR,1722886245
417,pasuquin,18.3328,120.6177,25.97,89,40,1.54,PH,1722886246
418,shanhecun,44.7,127.2,21.53,98,83,3.41,CN,1722886248
419,darwin,-12.4611,130.8418,22.99,83,75,3.09,AU,1722886023
420,eregli,37.5133,34.0467,24.68,35,7,1.5,TR,1722886250
421,vilyuchinsk,52.9306,158.4028,12.15,79,100,0.39,RU,1722886251
422,sturgeon bay,44.8342,-87.377,21.99,56,0,4.12,US,1722886252
423,riachao das neves,-11.7461,-44.91,29.83,24,0,3.16,BR,1722886253
424,biltine,14.5333,20.9167,24.15,86,99,3.37,TD,1722885972
425,greenfield,42.9614,-88.0126,26.92,73,100,3.6,US,1722886255
426,al jawf,29.5,38.75,29.13,16,0,3.53,SA,1722886250
427,westport,41.1415,-73.3579,32.74,52,0,2.57,US,1722886002
428,monrovia,6.3005,-10.7969,25.87,83,46,5.13,LR,1722886258
429,kamuli,0.9472,33.1197,18.45,68,59,1.14,UG,1722886260
430,iskateley,67.6803,53.1512,5.94,85,5,5.14,RU,1722886261
431,vilyuysk,63.7553,121.6247,11.11,84,7,2.03,RU,1722886262
432,yarmouth,41.7057,-70.2286,30.92,72,0,4.63,US,1722886263
433,baruun-urt,46.6806,113.2792,17.78,57,72,3.42,MN,1722886264
434,santa luzia,-19.7697,-43.8514,26.6,48,40,4.63,BR,1722886265
435,la sarre,48.8002,-79.1996,20.28,38,84,3.21,CA,1722886266
436,lorengau,-2.0226,147.2712,26.98,81,74,3.29,PG,1722886267
437,cox's bazar,21.4532,91.9798,26.0,93,100,3.77,BD,1722886268
438,tangalle,6.024,80.7911,26.26,83,100,4.41,LK,1722886269
439,inarajan village,13.2736,144.7484,26.54,78,100,2.48,GU,1722886270
440,trairi,-3.2778,-39.2689,27.35,65,100,7.1,BR,1722885977
441,san luis de la loma,17.2706,-100.8939,30.45,67,100,4.3,MX,1722886273
442,kani keli,-12.9536,45.1033,23.59,71,91,1.8,YT,1722886274
443,saint-francois,46.4154,3.9054,23.69,68,0,0.51,FR,1722886275
444,patur,20.45,76.9333,24.51,87,99,4.85,IN,1722886276
445,north bend,43.4065,-124.2243,22.92,72,0,7.72,US,1722886277
446,leua,48.2156,18.6071,15.19,75,0,3.14,SK,1722886278
447,outjo,-20.1167,16.15,19.32,22,0,1.95,NA,1722886281
448,heihe,50.2441,127.4902,20.32,87,1,1.61,CN,1722886282
449,lycksele,64.5954,18.6735,15.93,94,75,0.0,SE,1722886283
450,bani walid,31.7566,13.9942,26.75,64,0,6.82,LY,1722886284
451,al hazm,16.1641,44.7769,31.71,32,100,3.55,YE,1722886285
452,katabu,-4.9333,122.5167,23.76,88,85,3.51,ID,1722886286
453,kazerun,29.6195,51.6541,30.56,21,8,2.15,IR,1722886287
454,kununurra,-15.7667,128.7333,17.99,88,100,2.06,AU,1722886197
455,cururupu,-1.8283,-44.8683,28.79,62,100,2.21,BR,1722886290
456,northam,51.0333,-4.2167,20.22,87,100,6.6,GB,1722886291
457,touros,-5.1989,-35.4608,25.18,74,55,7.18,BR,1722886292
458,bhuj,23.2667,69.6667,27.16,86,100,7.22,IN,1722886289
459,harstad,68.799,16.5293,21.66,73,78,1.1,NO,1722886294
460,bartica,6.4,-58.6167,30.18,59,84,1.22,GY,1722886295
461,alta,69.9689,23.2717,22.59,43,0,3.6,NO,1722886296
462,greymouth,-42.4667,171.2,5.62,91,9,1.75,NZ,1722886297
463,erenhot,43.6475,111.9767,22.96,34,0,5.02,CN,1722886298
464,fernie,49.5,-115.0687,23.05,33,0,2.75,CA,1722886299
465,broome,42.2506,-75.833,28.72,55,20,3.09,US,1722886300
466,coahuayana de hidalgo,18.7,-103.6583,32.82,60,94,3.36,MX,1722886302
467,gelendzhik,44.5731,38.0747,22.07,84,19,2.06,RU,1722886304
468,quellon,-43.1167,-73.6167,7.99,94,100,7.76,CL,1722886305
469,goundam,16.4145,-3.6708,34.42,39,29,1.07,ML,1722886306
470,karaton,-6.3424,106.1045,21.32,97,39,0.41,ID,1722886307
471,hilo,19.7297,-155.09,28.3,77,20,2.24,US,1722886127
472,tomatlan,19.9333,-105.25,32.74,56,60,4.65,MX,1722886309
473,kalabo,-14.97,22.6814,19.93,15,0,1.48,ZM,1722886311
474,bukama,-9.2,25.85,23.75,19,0,0.94,CD,1722886312
475,kargasok,59.0556,80.8572,16.36,93,72,2.67,RU,1722886313
476,ambalangoda,6.2355,80.0538,28.32,85,100,4.14,LK,1722886314
477,retreat,38.8245,-85.8533,35.21,52,0,2.03,US,1722886315
478,jambi city,-1.6,103.6167,23.54,88,4,1.34,ID,1722886316
479,jiuquan,39.7432,98.5174,26.73,29,100,5.47,CN,1722886317
480,meizhou,24.2977,116.1072,25.37,96,100,0.56,CN,1722886304
481,rajin,42.2489,130.3003,22.34,100,100,1.37,KP,1722886319
482,saint john,45.2727,-66.0677,24.57,88,40,2.57,CA,1722886293
483,axim,4.8699,-2.2405,23.39,87,100,3.62,GH,1722886322
484,san antonio de pale,-1.4014,5.6325,22.08,76,100,4.25,GQ,1722886323
485,kharp,66.8014,65.8081,5.82,75,3,2.43,RU,1722886324
486,villa gesell,-37.2639,-56.973,13.36,87,86,7.02,AR,1722886313
487,rio branco do sul,-25.19,-49.3142,24.18,45,12,0.26,BR,1722886326
488,dashitou,43.3067,128.5114,20.68,99,100,2.22,CN,1722886327
489,ancud,-41.8697,-73.8203,8.21,91,100,6.49,CL,1722886063
490,bhum,18.4667,75.6667,24.27,86,100,4.9,IN,1722886330
491,caleta olivia,-46.4393,-67.5281,5.53,94,100,9.18,AR,1722886316
492,khromtau,50.2503,58.4347,22.25,43,40,3.13,KZ,1722886333
493,conceicao do mato dentro,-19.0372,-43.425,23.06,51,0,2.11,BR,1722886334
494,sao joao da barra,-21.6403,-41.0511,26.05,83,0,7.47,BR,1722886335
495,noosa heads,-26.3833,153.15,14.63,74,80,3.24,AU,1722886336
496,moroni,-11.7022,43.2551,23.99,70,9,2.89,KM,1722886337
497,lebork,54.5392,17.7501,18.04,92,67,1.79,PL,1722886338
498,labuan bajo,-8.4964,119.8877,23.52,87,22,2.41,ID,1722886339
499,sechelt,49.4664,-123.7694,26.18,70,3,2.45,CA,1722886340
500,vallenar,-28.5708,-70.7581,19.92,24,99,3.18,CL,1722886341
501,aykol,38.1751,77.2132,26.51,48,99,5.54,CN,1722886343
502,ambatondrazaka,-17.8333,48.4167,14.31,97,24,0.37,MG,1722886344
503,aoulef,26.9667,1.0833,41.01,9,57,4.13,DZ,1722886345
504,tsiombe,-25.3,45.4833,18.03,93,4,1.15,MG,1722886346
505,cape town,-33.9258,18.4232,12.93,68,75,5.14,ZA,1722886347
506,shagonar,51.5333,92.8,15.62,90,100,1.54,RU,1722886348
507,novodvinsk,64.4165,40.8122,12.86,63,100,3.26,RU,1722886349
508,andritz,47.1036,15.4223,20.48,88,67,0.47,AT,1722886350
509,port macquarie,-31.4333,152.9167,12.26,99,100,0.89,AU,1722886351
510,tukrah,32.5341,20.5791,27.8,72,0,3.85,LY,1722886352
511,petropavlovsk-kamchatsky,53.0452,158.6483,11.33,100,100,1.0,RU,1722886354
512,selkirk,50.1436,-96.8845,23.93,42,100,0.45,CA,1722886355
513,muravlenko,63.7898,74.523,10.14,85,100,6.37,RU,1722886356
514,tal,35.4791,72.2439,16.37,93,63,0.86,PK,1722886357
515,le port,-20.9373,55.2919,19.0,77,8,1.16,RE,1722886358
516,okha,53.5739,142.9478,12.58,90,100,8.21,RU,1722886359
517,kibaya,-5.3,36.5667,15.29,61,1,2.08,TZ,1722886360
518,bam,29.106,58.357,35.72,11,75,4.29,IR,1722886361
519,gwangju,35.1547,126.9156,23.91,90,76,1.15,KR,1722886020
520,kiama,-34.6833,150.8667,12.78,76,33,0.89,AU,1722886363
521,las heras,-46.5419,-68.9359,1.56,99,100,8.24,AR,1722886365
522,namibe,-15.1961,12.1522,18.07,87,100,0.75,AO,1722886366
523,dhidhdhoo,6.8833,73.1,27.9,77,100,3.24,MV,1722886367
524,fort bragg,35.139,-79.006,31.08,75,75,4.63,US,1722886369
525,bad neustadt an der saale,50.3333,10.2167,16.38,74,29,0.87,DE,1722886370
526,aykhal,66.0,111.5,8.76,85,82,6.55,RU,1722886372
527,moree,-29.4667,149.85,9.57,98,34,3.34,AU,1722886373
528,mokhsogollokh,61.4681,128.9203,12.68,96,100,3.11,RU,1722886374
529,asmara,15.3333,38.9333,16.09,84,100,2.05,ER,1722886375
530,taungdwingyi,20.0167,95.55,23.36,97,100,2.83,MM,1722886376
531,afif,23.9065,42.9172,29.07,34,71,5.87,SA,1722886377
532,sanctuary point,-35.1114,150.629,12.64,82,8,3.54,AU,1722886379
533,puerto lempira,15.2667,-83.7667,30.08,70,75,5.14,HN,1722886380
534,rio gallegos,-51.6226,-69.2181,2.03,69,40,5.14,AR,1722886381
535,muramatsu,37.6833,139.1833,26.59,95,100,0.68,JP,1722886382
536,ambodifotatra,-16.9833,49.85,23.21,80,31,2.94,MG,1722886383
537,zahedan,29.4963,60.8629,27.95,26,5,2.06,IR,1722886384
538,nizhnesortymskiy,62.4397,71.7603,11.93,76,91,6.7,RU,1722886385
539,miri,4.4148,114.0089,26.08,94,20,0.0,MY,1722886386
540,jasper,37.2001,-94.3502,36.11,43,40,2.57,US,1722886233
541,prado,-17.3411,-39.2208,23.18,71,0,2.98,BR,1722886388
542,barcelos,41.5388,-8.6151,25.51,86,0,3.24,PT,1722886390
543,floro,61.5996,5.0328,20.04,68,75,6.69,NO,1722886391
544,kenai,60.5544,-151.2583,20.03,57,0,4.63,US,1722886392
545,nantong,32.0303,120.8747,27.84,82,97,3.3,CN,1722886393
546,kuta,-8.7233,115.1723,25.97,89,20,5.14,ID,1722886255
547,ciudad victoria,23.7333,-99.1333,36.23,42,20,4.12,MX,1722886395
548,pimentel,-6.8367,-79.9342,22.16,64,0,8.75,PE,1722886396
549,galle,6.0367,80.217,28.29,83,98,4.84,LK,1722886397
550,puerto real,36.5282,-6.1901,30.34,78,0,2.58,ES,1722886205
551,morondava,-20.2833,44.2833,21.05,79,0,4.88,MG,1722886399
552,huarmey,-10.0681,-78.1522,20.28,71,0,6.11,PE,1722886401
553,luau,-10.7073,22.2247,21.52,18,0,0.58,AO,1722886402
554,myrzakent,40.6667,68.5333,24.4,26,0,1.87,KZ,1722886403
555,cameron,26.117,-97.5169,34.5,68,40,2.68,US,1722886404
556,tromso,69.6496,18.957,20.01,56,20,4.12,NO,1722886405
557,banda aceh,5.5577,95.3222,26.89,79,98,5.19,ID,1722886406
558,kapuskasing,49.4169,-82.4331,22.05,43,75,6.17,CA,1722886407
559,coronel suarez,-37.4547,-61.9334,15.25,49,99,4.61,AR,1722886202
560,evans,33.5337,-82.1307,26.84,94,100,2.57,US,1722886409
561,paoua,7.2427,16.4406,21.73,92,100,0.11,CF,1722886410
562,nagqu,31.5,92.0,4.27,79,5,1.08,CN,1722886411
563,mont-laurier,46.5501,-75.4993,15.79,96,100,0.47,CA,1722886366
564,namtsy,62.7161,129.6658,13.36,90,100,3.72,RU,1722886414
565,al mijlad,11.0333,27.7333,27.97,62,72,4.51,SD,1722886415
566,prince rupert,54.3161,-130.3201,17.05,87,0,2.57,CA,1722886416
567,saint-philippe,-21.3585,55.7679,18.77,81,16,2.61,RE,1722886417
568,kudahuvadhoo,2.6708,72.8944,28.32,74,100,4.17,MV,1722886418
569,labuan,5.2767,115.2417,26.2,94,40,0.0,MY,1722886419
570,rio grande,-32.035,-52.0986,18.06,92,40,6.9,BR,1722886177
571,ixtapa,20.7,-105.2,33.46,58,40,4.12,MX,1722886421
572,puerto aysen,-45.4,-72.7,5.01,98,100,1.98,CL,1722886284
573,uacu cungo,-11.3634,15.1208,18.8,67,6,1.61,AO,1722886423
574,youhao,47.8667,128.8333,20.46,98,99,1.09,CN,1722886424
575,angra do heroismo,38.65,-27.2167,28.34,85,20,3.13,PT,1722886426
576,nakanojomachi,36.5833,138.85,25.31,92,0,1.87,JP,1722886427
577,bintulu,3.1667,113.0333,25.23,94,20,1.54,MY,1722886428
578,daqing,46.5833,125.0,21.42,83,0,3.25,CN,1722886429
579,cadale,2.7603,46.3222,24.66,80,7,9.71,SO,1722886430
580,saurimo,-9.6608,20.3916,21.0,23,0,0.98,AO,1722886432
581,santa elena de uairen,4.6167,-61.1333,24.8,62,74,4.23,VE,1722886433
582,zhalantun,48.0,122.7167,17.51,76,0,2.49,CN,1722886434
583,spearfish,44.4908,-103.8594,28.48,60,75,4.12,US,1722886435
584,mazagao,-0.115,-51.2894,33.03,45,35,2.45,BR,1722886437
585,weno,7.4515,151.8468,26.97,83,75,1.54,FM,1722886438
586,nova xavantina,-14.6667,-52.35,32.61,18,0,2.75,BR,1722886439
587,carupano,10.6678,-63.2585,27.73,78,94,4.23,VE,1722886440
588,huilong,31.8111,121.655,27.37,86,16,4.15,CN,1722886441
